{"type": "FeatureCollection", "features": [{"type": "Feature", "geometry": {"type": "Point", "coordinates": [114.16626880001752, 22.2786165]}, "properties": {"name": "Admiralty"}}, {"type": "Feature", "geometry": {"type": "Point", "coordinates": [114.1756895, 22.2816132]}, "properties": {"name": "Exhibition Centre"}}, {"type": "Feature", "geometry": {"type": "Point", "coordinates": [114.1870218, 22.3379446]}, "properties": {"name": "Kowloon Tong"}}, {"type": "Feature", "geometry": {"type": "Point", "coordinates": [114.17888668912116, 22.3730706]}, "properties": {"name": "Tai Wai"}}, {"type": "Feature", "geometry": {"type": "Point", "coordinates": [114.17888668912116, 22.3730706]}, "properties": {"name": "Sha Tin"}}, {"type": "Feature", "geometry": {"type": "Point", "coordinates": [114.2019136034524, 22.40000085]}, "properties": {"name": "Fo Tan"}}, {"type": "Feature", "geometry": {"type": "Point", "coordinates": [114.17903779007855, 22.4565854]}, "properties": {"name": "Tai Po Market"}}, {"type": "Feature", "geometry": {"type": "Point", "coordinates": [114.07121185256614, 22.4148826]}, "properties": {"name": "Tai Wo"}}, {"type": "Feature", "geometry": {"type": "Point", "coordinates": [114.10011417278497, 22.50755305]}, "properties": {"name": "Sheung Shui"}}, {"type": "Feature", "geometry": {"type": "Point", "coordinates": [114.11451233440229, 22.525903800000002]}, "properties": {"name": "Lo Wu"}}, {"type": "Feature", "geometry": {"type": "Point", "coordinates": [114.06569863462444, 22.514453850000002]}, "properties": {"name": "Lok Ma Chau"}}, {"type": "Feature", "geometry": {"type": "Point", "coordinates": [114.1884159950541, 22.3052841]}, "properties": {"name": "Whampoa"}}, {"type": "Feature", "geometry": {"type": "Point", "coordinates": [114.18210315096238, 22.309599499999997]}, "properties": {"name": "Ho Man Tin"}}, {"type": "Feature", "geometry": {"type": "Point", "coordinates": [114.1685377, 22.3229723]}, "properties": {"name": "Prince Edward"}}, {"type": "Feature", "geometry": {"type": "Point", "coordinates": [114.16880886749917, 22.33236485]}, "properties": {"name": "Shek Kip Mei"}}, {"type": "Feature", "geometry": {"type": "Point", "coordinates": [114.18658396201053, 22.337854450000002]}, "properties": {"name": "Lok Fu"}}, {"type": "Feature", "geometry": {"type": "Point", "coordinates": [114.18658396201053, 22.337854450000002]}, "properties": {"name": "Wong Tai Sin"}}, {"type": "Feature", "geometry": {"type": "Point", "coordinates": [114.19490427324808, 22.34334535]}, "properties": {"name": "Diamond Hill"}}, {"type": "Feature", "geometry": {"type": "Point", "coordinates": [114.21412352083235, 22.3231377]}, "properties": {"name": "Kowloon Bay"}}, {"type": "Feature", "geometry": {"type": "Point", "coordinates": [114.21412352083235, 22.3231377]}, "properties": {"name": "Ngau Tau Kok"}}, {"type": "Feature", "geometry": {"type": "Point", "coordinates": [114.21412352083235, 22.3231377]}, "properties": {"name": "Kwun Tong"}}, {"type": "Feature", "geometry": {"type": "Point", "coordinates": [114.2269282, 22.3119942]}, "properties": {"name": "Lam Tin"}}, {"type": "Feature", "geometry": {"type": "Point", "coordinates": [114.24149200555364, 22.29565185]}, "properties": {"name": "Yau Tong"}}, {"type": "Feature", "geometry": {"type": "Point", "coordinates": [114.263975, 22.3163375]}, "properties": {"name": "Tiu Keng Leng"}}, {"type": "Feature", "geometry": {"type": "Point", "coordinates": [114.131206, 22.3630265]}, "properties": {"name": "Tsuen Wan"}}, {"type": "Feature", "geometry": {"type": "Point", "coordinates": [114.1764584, 22.3779513]}, "properties": {"name": "Tai Wo Hau"}}, {"type": "Feature", "geometry": {"type": "Point", "coordinates": [114.1311712, 22.3630255]}, "properties": {"name": "Kwai Hing"}}, {"type": "Feature", "geometry": {"type": "Point", "coordinates": [114.1302774, 22.3594711]}, "properties": {"name": "Kwai Fong"}}, {"type": "Feature", "geometry": {"type": "Point", "coordinates": [114.1255256, 22.3537609]}, "properties": {"name": "Lai King"}}, {"type": "Feature", "geometry": {"type": "Point", "coordinates": [114.1395647561616, 22.33776575]}, "properties": {"name": "Lai Chi Kok"}}, {"type": "Feature", "geometry": {"type": "Point", "coordinates": [114.1395647561616, 22.33776575]}, "properties": {"name": "Cheung Sha Wan"}}, {"type": "Feature", "geometry": {"type": "Point", "coordinates": [114.14840284167492, 22.3373409]}, "properties": {"name": "Sham Shui Po"}}, {"type": "Feature", "geometry": {"type": "Point", "coordinates": [114.17171519464297, 22.304809900000002]}, "properties": {"name": "Jordan"}}, {"type": "Feature", "geometry": {"type": "Point", "coordinates": [114.1820106, 22.3031874]}, "properties": {"name": "Tsim Sha Tsui"}}, {"type": "Feature", "geometry": {"type": "Point", "coordinates": [114.13512382568808, 22.28435235]}, "properties": {"name": "Kennedy Town"}}, {"type": "Feature", "geometry": {"type": "Point", "coordinates": [114.13512382568808, 22.28435235]}, "properties": {"name": "HKU"}}, {"type": "Feature", "geometry": {"type": "Point", "coordinates": [114.13512382568808, 22.28435235]}, "properties": {"name": "Sai Ying Pun"}}, {"type": "Feature", "geometry": {"type": "Point", "coordinates": [114.15883941745581, 22.284201799999998]}, "properties": {"name": "Sheung Wan"}}, {"type": "Feature", "geometry": {"type": "Point", "coordinates": [114.16626880001752, 22.2786165]}, "properties": {"name": "Central"}}, {"type": "Feature", "geometry": {"type": "Point", "coordinates": [114.23723836932163, 22.264783350000002]}, "properties": {"name": "Wan Chai"}}, {"type": "Feature", "geometry": {"type": "Point", "coordinates": [114.1757933888679, 22.28160385]}, "properties": {"name": "Causeway Bay"}}, {"type": "Feature", "geometry": {"type": "Point", "coordinates": [114.192687, 22.283425]}, "properties": {"name": "Tin Hau"}}, {"type": "Feature", "geometry": {"type": "Point", "coordinates": [114.20953, 22.2875514]}, "properties": {"name": "Fortress Hill"}}, {"type": "Feature", "geometry": {"type": "Point", "coordinates": [114.20953, 22.2875514]}, "properties": {"name": "North Point"}}, {"type": "Feature", "geometry": {"type": "Point", "coordinates": [114.21336133657408, 22.290635549999998]}, "properties": {"name": "Quarry Bay"}}, {"type": "Feature", "geometry": {"type": "Point", "coordinates": [114.21336133657408, 22.290635549999998]}, "properties": {"name": "Sai Wan Ho"}}, {"type": "Feature", "geometry": {"type": "Point", "coordinates": [114.24035062696049, 22.2742997]}, "properties": {"name": "Shau Kei Wan"}}, {"type": "Feature", "geometry": {"type": "Point", "coordinates": [114.24035062696049, 22.2742997]}, "properties": {"name": "Heng Fa Chuen"}}, {"type": "Feature", "geometry": {"type": "Point", "coordinates": [114.23723836932163, 22.264783350000002]}, "properties": {"name": "Chai Wan"}}, {"type": "Feature", "geometry": {"type": "Point", "coordinates": [113.9413739, 22.2892449]}, "properties": {"name": "Tung Chung"}}, {"type": "Feature", "geometry": {"type": "Point", "coordinates": [114.0350229, 22.3267005]}, "properties": {"name": "Sunny Bay"}}, {"type": "Feature", "geometry": {"type": "Point", "coordinates": [114.1302774, 22.3594711]}, "properties": {"name": "Tsing Yi"}}, {"type": "Feature", "geometry": {"type": "Point", "coordinates": [114.1820106, 22.3031874]}, "properties": {"name": "Kowloon"}}, {"type": "Feature", "geometry": {"type": "Point", "coordinates": [114.1820106, 22.3031874]}, "properties": {"name": "Hong Kong"}}, {"type": "Feature", "geometry": {"type": "Point", "coordinates": [114.1628855, 22.3087109]}, "properties": {"name": "Airport"}}, {"type": "Feature", "geometry": {"type": "Point", "coordinates": [114.2729812, 22.3062228]}, "properties": {"name": "Po Lam"}}, {"type": "Feature", "geometry": {"type": "Point", "coordinates": [114.254683, 22.3055461]}, "properties": {"name": "Hang Hau"}}, {"type": "Feature", "geometry": {"type": "Point", "coordinates": [114.2698184, 22.296396]}, "properties": {"name": "LOHAS Park"}}, {"type": "Feature", "geometry": {"type": "Point", "coordinates": [114.2729812, 22.3062228]}, "properties": {"name": "Tseung Kwan O"}}, {"type": "Feature", "geometry": {"type": "Point", "coordinates": [114.23685189034117, 22.425824]}, "properties": {"name": "Wu Kai Sha"}}, {"type": "Feature", "geometry": {"type": "Point", "coordinates": [114.22274694332802, 22.40847745]}, "properties": {"name": "Ma On Shan"}}, {"type": "Feature", "geometry": {"type": "Point", "coordinates": [114.22274694332802, 22.40847745]}, "properties": {"name": "Heng On"}}, {"type": "Feature", "geometry": {"type": "Point", "coordinates": [114.22274694332802, 22.40847745]}, "properties": {"name": "Tai Shui Hang"}}, {"type": "Feature", "geometry": {"type": "Point", "coordinates": [114.2019136034524, 22.40000085]}, "properties": {"name": "Shek Mun"}}, {"type": "Feature", "geometry": {"type": "Point", "coordinates": [114.17888668912116, 22.3730706]}, "properties": {"name": "Sha Tin Wai"}}, {"type": "Feature", "geometry": {"type": "Point", "coordinates": [114.17888668912116, 22.3730706]}, "properties": {"name": "Hin Keng"}}, {"type": "Feature", "geometry": {"type": "Point", "coordinates": [114.187753872523, 22.3212524]}, "properties": {"name": "Kai Tak"}}, {"type": "Feature", "geometry": {"type": "Point", "coordinates": [114.19100743072742, 22.3237274]}, "properties": {"name": "Sung Wong Toi"}}, {"type": "Feature", "geometry": {"type": "Point", "coordinates": [114.18210315096238, 22.309599499999997]}, "properties": {"name": "To Kwa Wan"}}, {"type": "Feature", "geometry": {"type": "Point", "coordinates": [114.1820106, 22.3031874]}, "properties": {"name": "Hung Hom"}}, {"type": "Feature", "geometry": {"type": "Point", "coordinates": [114.1820106, 22.3031874]}, "properties": {"name": "East Tsim Sha Tsui"}}, {"type": "Feature", "geometry": {"type": "Point", "coordinates": [114.1395647561616, 22.33776575]}, "properties": {"name": "Mei Foo"}}, {"type": "Feature", "geometry": {"type": "Point", "coordinates": [114.10994408788338, 22.36834555]}, "properties": {"name": "Tsuen Wan West"}}, {"type": "Feature", "geometry": {"type": "Point", "coordinates": [114.06346388867124, 22.434748]}, "properties": {"name": "Kam Sheung Road"}}, {"type": "Feature", "geometry": {"type": "Point", "coordinates": [114.03528496981605, 22.446194]}, "properties": {"name": "Yuen Long"}}, {"type": "Feature", "geometry": {"type": "Point", "coordinates": [114.21412352083235, 22.3231377]}, "properties": {"name": "Long Ping"}}, {"type": "Feature", "geometry": {"type": "Point", "coordinates": [114.01847830475933, 22.448646349999997]}, "properties": {"name": "Tin Shui Wai"}}, {"type": "Feature", "geometry": {"type": "Point", "coordinates": [113.9785694, 22.4101198]}, "properties": {"name": "Siu Hong"}}, {"type": "Feature", "geometry": {"type": "Point", "coordinates": [113.96520951515305, 22.381791200000002]}, "properties": {"name": "Tuen Mun"}}, {"type": "Feature", "geometry": {"type": "Point", "coordinates": [114.0377737, 22.3175413]}, "properties": {"name": "Disneyland Resort"}}, {"type": "Feature", "geometry": {"type": "Point", "coordinates": [114.03528496981605, 22.446194]}, "properties": {"name": "Lei Tung"}}, {"type": "Feature", "geometry": {"type": "Point", "coordinates": [114.1758867, 22.249699]}, "properties": {"name": "Wong Chuk Hang"}}, {"type": "Feature", "geometry": {"type": "Point", "coordinates": [114.1733009, 22.2482049]}, "properties": {"name": "Ocean Park"}}]}